{
  "entries": [
    {
      "id": 1,
      "name": "Alexander Miller",
      "city": "Vienna",
      "latitude": 48.2102,
      "longitude": 16.3634,
      "description": "A modern 2-bedroom apartment in a quiet residential area, featuring an open-plan kitchen, balcony, and plenty of natural light.",
      "trustscore": 742,
      "size": 78,
      "beds": 2,
      "startDate": "2026-09-14",
      "endDate": "2026-10-05"
    },
    {
      "id": 2,
      "name": "Emma Carter",
      "city": "Paris",
      "latitude": 48.858,
      "longitude": 2.347,
      "description": "A stylish studio apartment in central Paris with high ceilings, large windows, and a compact but fully equipped kitchen.",
      "trustscore": 318,
      "size": 42,
      "beds": 1,
      "startDate": "2026-10-02",
      "endDate": "2026-10-24"
    },
    {
      "id": 3,
      "name": "Lucas Bennett",
      "city": "London",
      "latitude": 51.509,
      "longitude": -0.118,
      "description": "A spacious 3-bedroom apartment near public transport, offering modern furnishings and a shared garden.",
      "trustscore": 905,
      "size": 112,
      "beds": 3,
      "startDate": "2026-08-27",
      "endDate": "2026-09-18"
    },
    {
      "id": 4,
      "name": "Sophie Laurent",
      "city": "Paris",
      "latitude": 48.8532,
      "longitude": 2.3499,
      "description": "A renovated one-bedroom apartment in a historic building with hardwood floors and a bright living area.",
      "trustscore": 612,
      "size": 58,
      "beds": 1,
      "startDate": "2026-07-19",
      "endDate": "2026-08-13"
    },
    {
      "id": 5,
      "name": "Daniel Brooks",
      "city": "Vienna",
      "latitude": 48.2049,
      "longitude": 16.3705,
      "description": "A contemporary loft apartment with industrial design elements, high ceilings, and an open living space.",
      "trustscore": 884,
      "size": 101,
      "beds": 3,
      "startDate": "2026-10-08",
      "endDate": "2026-11-04"
    },
    {
      "id": 6,
      "name": "Charlotte Evans",
      "city": "London",
      "latitude": 51.5135,
      "longitude": -0.1312,
      "description": "A cozy 2-bedroom apartment featuring a modern kitchen, private balcony, and excellent city views.",
      "trustscore": 447,
      "size": 74,
      "beds": 2,
      "startDate": "2026-09-30",
      "endDate": "2026-10-21"
    },
    {
      "id": 7,
      "name": "Julian Weber",
      "city": "Vienna",
      "latitude": 48.2128,
      "longitude": 16.3791,
      "description": "A well-lit apartment in a central district, offering 2 bedrooms, a spacious living room, and underground parking.",
      "trustscore": 991,
      "size": 118,
      "beds": 3,
      "startDate": "2026-08-12",
      "endDate": "2026-09-03"
    },
    {
      "id": 8,
      "name": "Isabelle Martin",
      "city": "Paris",
      "latitude": 48.8601,
      "longitude": 2.3556,
      "description": "A charming apartment near the river with elegant interiors, wooden floors, and a compact balcony.",
      "trustscore": 530,
      "size": 66,
      "beds": 2,
      "startDate": "2026-10-25",
      "endDate": "2026-11-18"
    },
    {
      "id": 9,
      "name": "Henry Collins",
      "city": "London",
      "latitude": 51.5062,
      "longitude": -0.1246,
      "description": "A modern flat with 1 bedroom, open kitchen layout, and access to a rooftop terrace.",
      "trustscore": 276,
      "size": 39,
      "beds": 1,
      "startDate": "2026-09-06",
      "endDate": "2026-09-30"
    },
    {
      "id": 10,
      "name": "Amelia Scott",
      "city": "Vienna",
      "latitude": 48.2067,
      "longitude": 16.3759,
      "description": "A newly renovated apartment featuring smart home systems, 2 bedrooms, and a spacious bathroom.",
      "trustscore": 803,
      "size": 87,
      "beds": 2,
      "startDate": "2026-10-17",
      "endDate": "2026-11-08"
    },
    {
      "id": 11,
      "name": "Thomas Wright",
      "city": "London",
      "latitude": 51.5118,
      "longitude": -0.121,
      "description": "A luxury apartment in a high-rise building with panoramic city views and premium finishes.",
      "trustscore": 659,
      "size": 109,
      "beds": 3,
      "startDate": "2026-11-01",
      "endDate": "2026-11-26"
    },
    {
      "id": 12,
      "name": "Clara Dubois",
      "city": "Paris",
      "latitude": 48.8555,
      "longitude": 2.3608,
      "description": "A bright studio apartment with modern furnishings, located close to cafés and cultural landmarks.",
      "trustscore": 412,
      "size": 47,
      "beds": 1,
      "startDate": "2026-08-22",
      "endDate": "2026-09-14"
    },
    {
      "id": 13,
      "name": "Benjamin Clarke",
      "city": "Vienna",
      "latitude": 48.2145,
      "longitude": 16.3661,
      "description": "A quiet apartment with 2 bedrooms, a separate kitchen, and excellent insulation for year-round comfort.",
      "trustscore": 968,
      "size": 95,
      "beds": 2,
      "startDate": "2026-09-11",
      "endDate": "2026-10-05"
    },
    {
      "id": 14,
      "name": "Olivia Brown",
      "city": "London",
      "latitude": 51.5083,
      "longitude": -0.135,
      "description": "A stylish apartment featuring an open-plan living space, modern appliances, and a private balcony.",
      "trustscore": 375,
      "size": 61,
      "beds": 2,
      "startDate": "2026-08-04",
      "endDate": "2026-08-26"
    },
    {
      "id": 15,
      "name": "Louis Moreau",
      "city": "Paris",
      "latitude": 48.852,
      "longitude": 2.3625,
      "description": "A compact yet elegant apartment in the city center with efficient layout and natural light.",
      "trustscore": 721,
      "size": 84,
      "beds": 2,
      "startDate": "2026-10-28",
      "endDate": "2026-11-24"
    },
    {
      "id": 16,
      "name": "Mia Johnson",
      "city": "Vienna",
      "latitude": 48.209,
      "longitude": 16.3808,
      "description": "A modern apartment designed for professionals, offering 1 bedroom, workspace area, and fast internet setup.",
      "trustscore": 589,
      "size": 53,
      "beds": 1,
      "startDate": "2026-08-15",
      "endDate": "2026-08-31"
    },
    {
      "id": 17,
      "name": "George Taylor",
      "city": "London",
      "latitude": 51.5129,
      "longitude": -0.1284,
      "description": "A family-friendly apartment with 3 bedrooms, large kitchen, and access to nearby parks.",
      "trustscore": 845,
      "size": 116,
      "beds": 3,
      "startDate": "2026-09-09",
      "endDate": "2026-10-02"
    },
    {
      "id": 18,
      "name": "Camille Rousseau",
      "city": "Paris",
      "latitude": 48.8571,
      "longitude": 2.3509,
      "description": "A refined apartment with classical Parisian design, tall windows, and decorative molding.",
      "trustscore": 233,
      "size": 57,
      "beds": 1,
      "startDate": "2026-10-03",
      "endDate": "2026-10-19"
    },
    {
      "id": 19,
      "name": "Ethan Walker",
      "city": "Vienna",
      "latitude": 48.2038,
      "longitude": 16.3729,
      "description": "A secure apartment in a modern complex with underground parking and fitness facilities.",
      "trustscore": 940,
      "size": 103,
      "beds": 3,
      "startDate": "2026-08-18",
      "endDate": "2026-09-15"
    },
    {
      "id": 20,
      "name": "Victoria Hill",
      "city": "London",
      "latitude": 51.5072,
      "longitude": -0.1205,
      "description": "A premium apartment featuring luxury interiors, concierge service, and a central location.",
      "trustscore": 667,
      "size": 90,
      "beds": 2,
      "startDate": "2026-09-26",
      "endDate": "2026-10-20"
    },
	
  {
    "id": 21,
    "name": "Emma Fischer",
    "city": "Vienna",
    "latitude": 48.21984,
    "longitude": 16.37391,
    "description": "Hi there, I’m offering my apartment in Vienna. It’s in a calm neighborhood with a tiny bakery downstairs, plenty of natural light, and a coffee machine that sounds more professional than it really is.",
    "trustscore": 684,
    "size": 74,
    "beds": 2,
    "startDate": "2026-07-12",
    "endDate": "2026-08-01"
  },
  {
    "id": 22,
    "name": "Louis Bernard",
    "city": "Paris",
    "latitude": 48.87251,
    "longitude": 2.32184,
    "description": "Hey, I am offering my apartment in Paris. The area is lively but somehow still quiet at night, there’s a balcony with questionable plants, and the kitchen comes with a very loyal coffee machine.",
    "trustscore": 531,
    "size": 46,
    "beds": 1,
    "startDate": "2026-08-03",
    "endDate": "2026-08-29"
  },
  {
    "id": 23,
    "name": "Daniel Cooper",
    "city": "London",
    "latitude": 51.51847,
    "longitude": -0.14392,
    "description": "Good news for anyone who likes wooden floors and strong espresso: I’m offering my apartment in London. It’s in a vibrant neighborhood, close to parks, and the sofa has seen many excellent naps.",
    "trustscore": 902,
    "size": 95,
    "beds": 3,
    "startDate": "2026-09-05",
    "endDate": "2026-09-30"
  },
  {
    "id": 24,
    "name": "Sophie Klein",
    "city": "Vienna",
    "latitude": 48.20127,
    "longitude": 16.41832,
    "description": "Hello, I’m offering my apartment in Vienna. The neighborhood is peaceful, the balcony gets afternoon sun, and there’s a coffee machine that behaves differently every morning.",
    "trustscore": 418,
    "size": 52,
    "beds": 2,
    "startDate": "2026-06-18",
    "endDate": "2026-07-11"
  },
  {
    "id": 25,
    "name": "Claire Moreau",
    "city": "Paris",
    "latitude": 48.84563,
    "longitude": 2.37244,
    "description": "Just putting my apartment in Paris out there. It’s in a friendly neighborhood with lots of cafés nearby, good sunlight in the kitchen, and a coffee machine that takes its job seriously.",
    "trustscore": 773,
    "size": 81,
    "beds": 2,
    "startDate": "2026-10-02",
    "endDate": "2026-10-28"
  },
  {
    "id": 26,
    "name": "Oliver Hayes",
    "city": "London",
    "latitude": 51.49233,
    "longitude": -0.09571,
    "description": "Hey everyone, I’m offering my apartment in London. It’s tucked into a quieter street, has a surprisingly sunny living room, and includes a coffee machine with more buttons than necessary.",
    "trustscore": 256,
    "size": 44,
    "beds": 1,
    "startDate": "2026-07-25",
    "endDate": "2026-08-15"
  },
  {
    "id": 27,
    "name": "Mila Wagner",
    "city": "Vienna",
    "latitude": 48.18754,
    "longitude": 16.35682,
    "description": "A quick note: I’m offering my apartment in Vienna. The area is relaxed and green, there’s a comfortable balcony for morning coffee, and the apartment has exactly the right amount of squeaky floorboards.",
    "trustscore": 614,
    "size": 91,
    "beds": 3,
    "startDate": "2026-08-14",
    "endDate": "2026-09-06"
  },
  {
    "id": 28,
    "name": "Theo Lambert",
    "city": "Paris",
    "latitude": 48.89021,
    "longitude": 2.34455,
    "description": "Hi, I’m offering my apartment in Paris. It’s near a busy neighborhood full of little restaurants, but the apartment itself stays quiet, especially once the coffee machine stops growling.",
    "trustscore": 845,
    "size": 63,
    "beds": 2,
    "startDate": "2026-06-09",
    "endDate": "2026-07-01"
  },
  {
    "id": 29,
    "name": "Hannah Brooks",
    "city": "London",
    "latitude": 51.53584,
    "longitude": -0.18274,
    "description": "Thought I’d share my apartment in London. It’s bright, comfortable, in a nice neighborhood with good bus connections, and there’s a coffee machine that deserves at least partial credit for the atmosphere.",
    "trustscore": 389,
    "size": 58,
    "beds": 2,
    "startDate": "2026-09-19",
    "endDate": "2026-10-12"
  },
  {
    "id": 30,
    "name": "Julien Petit",
    "city": "Paris",
    "latitude": 48.86175,
    "longitude": 2.28791,
    "description": "Hello there, I’m offering my apartment in Paris. It’s in a quieter part of the city, has a small reading corner by the window, and a coffee machine that operates with confidence.",
    "trustscore": 967,
    "size": 109,
    "beds": 3,
    "startDate": "2026-07-07",
    "endDate": "2026-07-29"
  },
  {
    "id": 31,
    "name": "Lena Hartmann",
    "city": "Vienna",
    "latitude": 48.24018,
    "longitude": 16.41266,
    "description": "Hey, I’m offering my apartment in Vienna. The neighborhood is calm and leafy, there’s a decent kitchen setup, and the coffee machine is responsible for most of the apartment’s personality.",
    "trustscore": 741,
    "size": 38,
    "beds": 1,
    "startDate": "2026-10-11",
    "endDate": "2026-11-05"
  },
  {
    "id": 32,
    "name": "Nathan Reed",
    "city": "London",
    "latitude": 51.50147,
    "longitude": -0.16825,
    "description": "I’m offering my apartment in London. It’s close to cafés and parks, the living room gets great evening light, and there’s a coffee machine that sounds like it’s preparing for launch.",
    "trustscore": 592,
    "size": 88,
    "beds": 2,
    "startDate": "2026-06-22",
    "endDate": "2026-07-18"
  },
  {
    "id": 33,
    "name": "Camille Rousseau",
    "city": "Paris",
    "latitude": 48.82844,
    "longitude": 2.35613,
    "description": "Hi everyone, I’m offering my apartment in Paris. It’s in a friendly neighborhood with a weekend market nearby, lots of sunlight in the mornings, and a very committed coffee machine.",
    "trustscore": 477,
    "size": 72,
    "beds": 2,
    "startDate": "2026-08-28",
    "endDate": "2026-09-18"
  },
  {
    "id": 34,
    "name": "Felix Bauer",
    "city": "Vienna",
    "latitude": 48.20894,
    "longitude": 16.33872,
    "description": "Offering my apartment in Vienna. The area is peaceful, the balcony is ideal for pretending to read books outside, and the coffee machine has survived many early mornings.",
    "trustscore": 198,
    "size": 49,
    "beds": 1,
    "startDate": "2026-07-30",
    "endDate": "2026-08-21"
  },
  {
    "id": 35,
    "name": "Eva Sinclair",
    "city": "London",
    "latitude": 51.47621,
    "longitude": -0.12153,
    "description": "Hello, I’m offering my apartment in London. It’s in a vibrant neighborhood with good food nearby, the place stays cozy even on rainy days, and there’s a coffee machine ready for duty.",
    "trustscore": 828,
    "size": 102,
    "beds": 3,
    "startDate": "2026-09-01",
    "endDate": "2026-09-27"
  },
  {
    "id": 36,
    "name": "Antoine Girard",
    "city": "Paris",
    "latitude": 48.85328,
    "longitude": 2.40187,
    "description": "Hey there, I’m offering my apartment in Paris. It’s in a quieter residential area, there’s a comfortable couch near the window, and the coffee machine works harder than I do.",
    "trustscore": 649,
    "size": 67,
    "beds": 2,
    "startDate": "2026-06-14",
    "endDate": "2026-07-05"
  },
  {
    "id": 37,
    "name": "Julia Neumann",
    "city": "Vienna",
    "latitude": 48.22763,
    "longitude": 16.44781,
    "description": "A little apartment listing from Vienna: the neighborhood is quiet, there’s plenty of light in the afternoons, and the coffee machine occasionally sounds offended but always delivers.",
    "trustscore": 315,
    "size": 55,
    "beds": 2,
    "startDate": "2026-08-09",
    "endDate": "2026-08-30"
  },
  {
    "id": 38,
    "name": "George Whitaker",
    "city": "London",
    "latitude": 51.54792,
    "longitude": -0.07411,
    "description": "Hi, I’m offering my apartment in London. It’s close to a lively neighborhood with good transit connections, has a sunny kitchen, and includes a coffee machine with strong opinions.",
    "trustscore": 721,
    "size": 84,
    "beds": 2,
    "startDate": "2026-10-05",
    "endDate": "2026-10-31"
  },
  {
    "id": 39,
    "name": "Lucie Fontaine",
    "city": "Paris",
    "latitude": 48.87648,
    "longitude": 2.29514,
    "description": "Just sharing my apartment in Paris. The area has a nice mix of quiet streets and busy cafés, the apartment gets lovely morning light, and there’s an excellent coffee machine in the kitchen.",
    "trustscore": 554,
    "size": 40,
    "beds": 1,
    "startDate": "2026-07-18",
    "endDate": "2026-08-08"
  },
  {
    "id": 40,
    "name": "Sebastian Clark",
    "city": "London",
    "latitude": 51.50964,
    "longitude": -0.20877,
    "description": "Hey, I’m offering my apartment in London. It’s in a relaxed neighborhood with good grocery stores nearby, there’s a comfortable balcony setup, and the coffee machine is surprisingly dramatic for such a small appliance.",
    "trustscore": 883,
    "size": 117,
    "beds": 3,
    "startDate": "2026-06-03",
    "endDate": "2026-06-26"
  }
	,
  {
    "id": 41,
    "name": "Aisha Khan",
    "city": "Vienna",
    "latitude": 48.2200,
    "longitude": 16.3900,
    "description": "Quick note: I’m offering my apartment in Vienna. It’s in a calm area with soft morning light, a small but determined coffee machine, and windows that politely let the sun in.",
    "trustscore": 612,
    "size": 60,
    "beds": 2,
    "startDate": "2026-06-05",
    "endDate": "2026-06-26"
  },
  {
    "id": 42,
    "name": "Mateo Silva",
    "city": "Paris",
    "latitude": 48.8600,
    "longitude": 2.3400,
    "description": "Hello from Paris: I’m offering my apartment. It sits in a lively neighborhood, has a cozy kitchen corner, and a coffee machine that behaves like it has opinions.",
    "trustscore": 447,
    "size": 45,
    "beds": 1,
    "startDate": "2026-06-10",
    "endDate": "2026-07-01"
  },
  {
    "id": 43,
    "name": "Yuki Tanaka",
    "city": "London",
    "latitude": 51.5150,
    "longitude": -0.1300,
    "description": "Just sharing my apartment in London. It’s located in a vibrant neighborhood, has decent natural light, and a coffee machine that sounds more powerful than it is.",
    "trustscore": 803,
    "size": 92,
    "beds": 3,
    "startDate": "2026-06-15",
    "endDate": "2026-07-06"
  },
  {
    "id": 44,
    "name": "Amélie Dubois",
    "city": "Vienna",
    "latitude": 48.1980,
    "longitude": 16.3600,
    "description": "A brief note: I’m offering my apartment in Vienna. The area is quiet, the balcony is suitable for overthinking coffee, and the coffee machine is reliably enthusiastic.",
    "trustscore": 299,
    "size": 38,
    "beds": 1,
    "startDate": "2026-06-20",
    "endDate": "2026-07-11"
  },
  {
    "id": 45,
    "name": "Omar El-Sayed",
    "city": "Paris",
    "latitude": 48.8450,
    "longitude": 2.3700,
    "description": "Hey there, I’m offering my apartment in Paris. It’s in a friendly district with cafés nearby, has warm afternoon light, and a coffee machine that never judges your timing.",
    "trustscore": 910,
    "size": 110,
    "beds": 3,
    "startDate": "2026-07-02",
    "endDate": "2026-07-30"
  },
  {
    "id": 46,
    "name": "Sofia Petrova",
    "city": "London",
    "latitude": 51.5000,
    "longitude": -0.1100,
    "description": "Hi there, I’m offering my apartment in London. It’s in a well-connected area, has a bright living room, and a coffee machine that takes its morning duties very seriously.",
    "trustscore": 522,
    "size": 70,
    "beds": 2,
    "startDate": "2026-07-08",
    "endDate": "2026-07-29"
  },
  {
    "id": 47,
    "name": "Luca Rossi",
    "city": "Vienna",
    "latitude": 48.2120,
    "longitude": 16.4100,
    "description": "Good day: I’m offering my apartment in Vienna. It’s in a peaceful neighborhood, has a comfortable layout, and a coffee machine that occasionally sounds philosophical.",
    "trustscore": 684,
    "size": 88,
    "beds": 2,
    "startDate": "2026-07-12",
    "endDate": "2026-08-02"
  },
  {
    "id": 48,
    "name": "Priya Nair",
    "city": "Paris",
    "latitude": 48.8700,
    "longitude": 2.3200,
    "description": "Well hello, I’m offering my apartment in Paris. It’s in a vibrant area with plenty of cafés, gets nice daylight, and includes a coffee machine with surprising confidence.",
    "trustscore": 571,
    "size": 52,
    "beds": 2,
    "startDate": "2026-07-18",
    "endDate": "2026-08-08"
  },
  {
    "id": 49,
    "name": "Chen Wei",
    "city": "London",
    "latitude": 51.5200,
    "longitude": -0.1400,
    "description": "Surprise listing: I’m offering my apartment in London. It’s in a quiet pocket of a lively city, has decent sunlight, and a coffee machine that refuses to be subtle.",
    "trustscore": 366,
    "size": 49,
    "beds": 1,
    "startDate": "2026-07-22",
    "endDate": "2026-08-12"
  },
  {
    "id": 50,
    "name": "Noah Johnson",
    "city": "Vienna",
    "latitude": 48.2300,
    "longitude": 16.3450,
    "description": "A quick hello: I’m offering my apartment in Vienna. The neighborhood is calm, the space is roomy, and the coffee machine has an unnecessarily strong personality.",
    "trustscore": 740,
    "size": 101,
    "beds": 3,
    "startDate": "2026-07-25",
    "endDate": "2026-08-20"
  },
  {
    "id": 51,
    "name": "Elena García",
    "city": "Paris",
    "latitude": 48.8520,
    "longitude": 2.3600,
    "description": "Just a small note: I’m offering my apartment in Paris. It’s in a charming neighborhood, has soft natural light, and a coffee machine that behaves like a morning ritual guardian.",
    "trustscore": 623,
    "size": 83,
    "beds": 2,
    "startDate": "2026-08-01",
    "endDate": "2026-08-25"
  },
  {
    "id": 52,
    "name": "Kwame Mensah",
    "city": "London",
    "latitude": 51.4950,
    "longitude": -0.1500,
    "description": "Hey, I’m offering my apartment in London. It’s in a convenient area, has a relaxed atmosphere, and a coffee machine that sounds slightly overconfident.",
    "trustscore": 458,
    "size": 65,
    "beds": 2,
    "startDate": "2026-08-05",
    "endDate": "2026-08-29"
  },
  {
    "id": 53,
    "name": "Hiroshi Sato",
    "city": "Vienna",
    "latitude": 48.2050,
    "longitude": 16.3950,
    "description": "Friendly update: I’m offering my apartment in Vienna. It’s in a quiet street, has soft lighting throughout the day, and a coffee machine that behaves consistently enough.",
    "trustscore": 319,
    "size": 44,
    "beds": 1,
    "startDate": "2026-08-10",
    "endDate": "2026-08-31"
  },
  {
    "id": 54,
    "name": "Zara Ahmed",
    "city": "Paris",
    "latitude": 48.8400,
    "longitude": 2.3900,
    "description": "Hey there, I’m offering my apartment in Paris. It’s in a lively district, has a cozy interior, and a coffee machine that quietly insists on being part of your morning.",
    "trustscore": 792,
    "size": 95,
    "beds": 3,
    "startDate": "2026-08-15",
    "endDate": "2026-09-10"
  },
  {
    "id": 55,
    "name": "Isabella Thompson",
    "city": "London",
    "latitude": 51.5100,
    "longitude": -0.1000,
    "description": "Hello from London: I’m offering my apartment. It’s bright, spacious, in a good neighborhood, and features a coffee machine that sounds like it’s negotiating every brew.",
    "trustscore": 885,
    "size": 120,
    "beds": 3,
    "startDate": "2026-08-20",
    "endDate": "2026-09-15"
  },
  {
    "id": 56,
    "name": "Milan Kovács",
    "city": "Vienna",
    "latitude": 48.2155,
    "longitude": 16.3300,
    "description": "A quick hello from Vienna: I’m offering my apartment. It’s in a relaxed neighborhood, has plenty of daylight, and a coffee machine that occasionally surprises me.",
    "trustscore": 533,
    "size": 57,
    "beds": 2,
    "startDate": "2026-08-25",
    "endDate": "2026-09-15"
  },
  {
    "id": 57,
    "name": "Fatou Ndiaye",
    "city": "Paris",
    "latitude": 48.8650,
    "longitude": 2.3000,
    "description": "Well met: I’m offering my apartment in Paris. It’s in a calm residential area, has soft lighting in the evenings, and a coffee machine that takes itself quite seriously.",
    "trustscore": 412,
    "size": 39,
    "beds": 1,
    "startDate": "2026-09-01",
    "endDate": "2026-09-22"
  },
  {
    "id": 58,
    "name": "Diego Martinez",
    "city": "London",
    "latitude": 51.5300,
    "longitude": -0.1200,
    "description": "Hi there: I’m offering my apartment in London. It’s in a lively area, has comfortable furniture, and a coffee machine that sounds slightly too proud of itself.",
    "trustscore": 677,
    "size": 77,
    "beds": 2,
    "startDate": "2026-09-05",
    "endDate": "2026-09-28"
  },
  {
    "id": 59,
    "name": "Anika Schmidt",
    "city": "Vienna",
    "latitude": 48.1950,
    "longitude": 16.3850,
    "description": "Just a note: I’m offering my apartment in Vienna. The neighborhood is peaceful, the space feels balanced, and the coffee machine is surprisingly expressive.",
    "trustscore": 734,
    "size": 90,
    "beds": 2,
    "startDate": "2026-09-10",
    "endDate": "2026-10-01"
  },
  {
    "id": 60,
    "name": "Liam O'Connor",
    "city": "Paris",
    "latitude": 48.8550,
    "longitude": 2.4100,
    "description": "Hello there, I’m offering my apartment in Paris. It’s in a friendly neighborhood, has good natural light, and a coffee machine that behaves like it’s part of the family.",
    "trustscore": 566,
    "size": 68,
    "beds": 2,
    "startDate": "2026-09-15",
    "endDate": "2026-10-06"
  },
  {
    "id": 61,
    "name": "Nadia Petrović",
    "city": "Vienna",
    "latitude": 48.2142,
    "longitude": 16.3621,
    "description": "Starting off simply: I’m offering my apartment in Vienna. It’s in a quiet street with leafy views, has a cozy kitchen setup, and a coffee machine that occasionally sounds like it’s thinking out loud.",
    "trustscore": 488,
    "size": 73,
    "beds": 2,
    "startDate": "2026-06-03",
    "endDate": "2026-06-25"
  },
  {
    "id": 62,
    "name": "Ethan Walker",
    "city": "London",
    "latitude": 51.5123,
    "longitude": -0.1184,
    "description": "Jumping right in: I’m offering my apartment in London. It’s in a vibrant area, gets solid daylight, and includes a coffee machine that sounds more ambitious than it needs to be.",
    "trustscore": 617,
    "size": 84,
    "beds": 2,
    "startDate": "2026-06-08",
    "endDate": "2026-06-30"
  },
  {
    "id": 63,
    "name": "Chloé Bernard",
    "city": "Paris",
    "latitude": 48.8609,
    "longitude": 2.3412,
    "description": "Out of nowhere: I’m offering my apartment in Paris. It sits in a lively neighborhood, has soft morning light, and a coffee machine that behaves like it has opinions about timing.",
    "trustscore": 739,
    "size": 91,
    "beds": 3,
    "startDate": "2026-06-12",
    "endDate": "2026-07-05"
  },
  {
    "id": 64,
    "name": "Jonas Richter",
    "city": "Vienna",
    "latitude": 48.2071,
    "longitude": 16.3905,
    "description": "Here we go: I’m offering my apartment in Vienna. The area is calm, the interior is simple and bright, and the coffee machine produces exactly the right amount of morning optimism.",
    "trustscore": 352,
    "size": 46,
    "beds": 1,
    "startDate": "2026-06-15",
    "endDate": "2026-07-07"
  },
  {
    "id": 65,
    "name": "Maya Singh",
    "city": "London",
    "latitude": 51.5058,
    "longitude": -0.1416,
    "description": "Straight to it: I’m offering my apartment in London. It’s in a convenient neighborhood, has a bright living space, and a coffee machine that sounds like it’s preparing for a mission.",
    "trustscore": 804,
    "size": 112,
    "beds": 3,
    "startDate": "2026-06-18",
    "endDate": "2026-07-10"
  },
  {
    "id": 66,
    "name": "Pierre Laurent",
    "city": "Paris",
    "latitude": 48.8513,
    "longitude": 2.3658,
    "description": "Well then: I’m offering my apartment in Paris. It’s in a friendly district, has a compact sunny balcony, and a coffee machine that insists on participating in your routine.",
    "trustscore": 563,
    "size": 58,
    "beds": 2,
    "startDate": "2026-06-20",
    "endDate": "2026-07-13"
  },
  {
    "id": 67,
    "name": "Elif Demir",
    "city": "Vienna",
    "latitude": 48.2006,
    "longitude": 16.3759,
    "description": "Quick update: I’m offering my apartment in Vienna. It’s in a peaceful area, has warm natural lighting, and a coffee machine that behaves like a well-trained but slightly dramatic assistant.",
    "trustscore": 691,
    "size": 96,
    "beds": 3,
    "startDate": "2026-06-25",
    "endDate": "2026-07-18"
  },
  {
    "id": 68,
    "name": "Oliver Bennett",
    "city": "London",
    "latitude": 51.5189,
    "longitude": -0.1321,
    "description": "Hello there: I’m offering my apartment in London. It’s in a lively but comfortable neighborhood, has good window light, and a coffee machine that sounds overly confident before every brew.",
    "trustscore": 279,
    "size": 41,
    "beds": 1,
    "startDate": "2026-06-28",
    "endDate": "2026-07-20"
  },
  {
    "id": 69,
    "name": "Sofia Alvarez",
    "city": "Paris",
    "latitude": 48.8662,
    "longitude": 2.3470,
    "description": "To put it simply: I’m offering my apartment in Paris. It’s in a charming neighborhood, has soft afternoon light, and a coffee machine that quietly dominates the kitchen.",
    "trustscore": 842,
    "size": 79,
    "beds": 2,
    "startDate": "2026-07-01",
    "endDate": "2026-07-25"
  },
  {
    "id": 70,
    "name": "Lukas Weber",
    "city": "Vienna",
    "latitude": 48.2119,
    "longitude": 16.3512,
    "description": "Starting here: I’m offering my apartment in Vienna. The neighborhood is relaxed, the apartment is airy, and the coffee machine behaves like it’s part of the morning weather system.",
    "trustscore": 415,
    "size": 52,
    "beds": 2,
    "startDate": "2026-07-03",
    "endDate": "2026-07-27"
  },
  {
    "id": 71,
    "name": "Amira Hassan",
    "city": "London",
    "latitude": 51.5091,
    "longitude": -0.1098,
    "description": "Right away: I’m offering my apartment in London. It’s in a central but calm area, has warm lighting, and a coffee machine that sounds like it’s negotiating every cup.",
    "trustscore": 903,
    "size": 118,
    "beds": 3,
    "startDate": "2026-07-06",
    "endDate": "2026-07-30"
  },
  {
    "id": 72,
    "name": "Luc Morel",
    "city": "Paris",
    "latitude": 48.8579,
    "longitude": 2.3294,
    "description": "Let’s go: I’m offering my apartment in Paris. It’s in a lively neighborhood, has a bright kitchen corner, and a coffee machine that takes its role extremely seriously.",
    "trustscore": 338,
    "size": 44,
    "beds": 1,
    "startDate": "2026-07-09",
    "endDate": "2026-08-01"
  },
  {
    "id": 73,
    "name": "Emilia Novak",
    "city": "Vienna",
    "latitude": 48.2033,
    "longitude": 16.3987,
    "description": "Here’s the situation: I’m offering my apartment in Vienna. It’s in a quiet residential area, has gentle daylight, and a coffee machine that insists on being part of conversations.",
    "trustscore": 756,
    "size": 87,
    "beds": 2,
    "startDate": "2026-07-12",
    "endDate": "2026-08-05"
  },
  {
    "id": 74,
    "name": "Thomas Reid",
    "city": "London",
    "latitude": 51.4965,
    "longitude": -0.1379,
    "description": "Quick note: I’m offering my apartment in London. It’s in a well-connected neighborhood, has a comfortable layout, and a coffee machine that sounds slightly theatrical.",
    "trustscore": 466,
    "size": 67,
    "beds": 2,
    "startDate": "2026-07-15",
    "endDate": "2026-08-07"
  },
  {
    "id": 75,
    "name": "Inès Charpentier",
    "city": "Paris",
    "latitude": 48.8446,
    "longitude": 2.3589,
    "description": "Hi there: I’m offering my apartment in Paris. It’s in a pleasant neighborhood, has soft natural light, and a coffee machine that behaves like it’s mildly proud of itself.",
    "trustscore": 611,
    "size": 92,
    "beds": 3,
    "startDate": "2026-07-18",
    "endDate": "2026-08-10"
  },
  {
    "id": 76,
    "name": "Ben Carter",
    "city": "Vienna",
    "latitude": 48.2185,
    "longitude": 16.3829,
    "description": "Just saying: I’m offering my apartment in Vienna. It’s in a calm area, has a practical layout, and a coffee machine that occasionally sounds like it’s planning something.",
    "trustscore": 523,
    "size": 60,
    "beds": 2,
    "startDate": "2026-07-21",
    "endDate": "2026-08-14"
  },
  {
    "id": 77,
    "name": "Noor Al-Mansouri",
    "city": "London",
    "latitude": 51.5227,
    "longitude": -0.1256,
    "description": "To begin: I’m offering my apartment in London. It’s in a vibrant district, has good sunlight exposure, and a coffee machine that sounds more confident than necessary.",
    "trustscore": 742,
    "size": 83,
    "beds": 2,
    "startDate": "2026-07-24",
    "endDate": "2026-08-16"
  },
  {
    "id": 78,
    "name": "Clara Dupont",
    "city": "Paris",
    "latitude": 48.8627,
    "longitude": 2.3781,
    "description": "Here it is: I’m offering my apartment in Paris. It’s in a lively neighborhood, has a comfortable interior, and a coffee machine that treats mornings like a performance.",
    "trustscore": 888,
    "size": 104,
    "beds": 3,
    "startDate": "2026-07-27",
    "endDate": "2026-08-20"
  },
  {
    "id": 79,
    "name": "Henry Collins",
    "city": "Vienna",
    "latitude": 48.2096,
    "longitude": 16.3408,
    "description": "Right away: I’m offering my apartment in Vienna. It’s in a quiet neighborhood, has steady natural light, and a coffee machine that behaves like a reliable morning companion.",
    "trustscore": 377,
    "size": 48,
    "beds": 1,
    "startDate": "2026-07-30",
    "endDate": "2026-08-22"
  },
  {
    "id": 80,
    "name": "Amina Rahman",
    "city": "London",
    "latitude": 51.5032,
    "longitude": -0.1487,
    "description": "Last but not least: I’m offering my apartment in London. It’s in a calm yet central area, has warm interiors, and a coffee machine that seems emotionally invested in your mornings.",
    "trustscore": 650,
    "size": 75,
    "beds": 2,
    "startDate": "2026-08-02",
    "endDate": "2026-08-26"
  },
  {
    "id": 81,
    "name": "Jonas Koller",
    "city": "Vienna",
    "latitude": 48.2105,
    "longitude": 16.3650,
    "description": "Kicking things off: I’m offering my apartment in Vienna. It’s in a quiet residential pocket, has soft natural light, and a coffee machine that behaves like it’s slightly opinionated.",
    "trustscore": 540,
    "size": 66,
    "beds": 2,
    "startDate": "2026-08-04",
    "endDate": "2026-08-25"
  },
  {
    "id": 82,
    "name": "Leïla Benali",
    "city": "Paris",
    "latitude": 48.8600,
    "longitude": 2.3300,
    "description": "Out of nowhere: I’m offering my apartment in Paris. It’s in a lively area with cafés nearby, has warm morning light, and a coffee machine that insists on being part of the routine.",
    "trustscore": 418,
    "size": 49,
    "beds": 1,
    "startDate": "2026-06-11",
    "endDate": "2026-06-29"
  },
  {
    "id": 83,
    "name": "Raj Patel",
    "city": "London",
    "latitude": 51.5090,
    "longitude": -0.1350,
    "description": "Straight in: I’m offering my apartment in London. It’s in a well-connected neighborhood, gets decent daylight, and includes a coffee machine that sounds more ambitious than necessary.",
    "trustscore": 777,
    "size": 91,
    "beds": 3,
    "startDate": "2026-09-02",
    "endDate": "2026-09-26"
  },
  {
    "id": 84,
    "name": "Marta Novak",
    "city": "Vienna",
    "latitude": 48.1988,
    "longitude": 16.3802,
    "description": "To begin: I’m offering my apartment in Vienna. It’s spacious, sits in a calm area, and has a coffee machine that occasionally sounds like it’s making life decisions.",
    "trustscore": 301,
    "size": 120,
    "beds": 3,
    "startDate": "2026-10-01",
    "endDate": "2026-10-28"
  },
  {
    "id": 85,
    "name": "Hugo Martin",
    "city": "Paris",
    "latitude": 48.8530,
    "longitude": 2.3620,
    "description": "Well then: I’m offering my apartment in Paris. It’s in a friendly neighborhood, has nice afternoon light, and a coffee machine that behaves like a small household celebrity.",
    "trustscore": 612,
    "size": 72,
    "beds": 2,
    "startDate": "2026-07-05",
    "endDate": "2026-07-25"
  },
  {
    "id": 86,
    "name": "Sienna Clarke",
    "city": "London",
    "latitude": 51.5030,
    "longitude": -0.1200,
    "description": "Here we go: I’m offering my apartment in London. It’s in a lively but comfortable area, has a bright kitchen, and a coffee machine that sounds slightly too confident.",
    "trustscore": 455,
    "size": 58,
    "beds": 2,
    "startDate": "2026-06-20",
    "endDate": "2026-07-12"
  },
  {
    "id": 87,
    "name": "Arman Yilmaz",
    "city": "Vienna",
    "latitude": 48.2050,
    "longitude": 16.3900,
    "description": "A quick note: I’m offering my apartment in Vienna. It’s in a quiet street, has gentle daylight, and a coffee machine that treats mornings like a performance.",
    "trustscore": 688,
    "size": 44,
    "beds": 1,
    "startDate": "2026-07-15",
    "endDate": "2026-08-03"
  },
  {
    "id": 88,
    "name": "Camille Zhao",
    "city": "Paris",
    "latitude": 48.8660,
    "longitude": 2.3450,
    "description": "Jumping in: I’m offering my apartment in Paris. It’s in a vibrant district, has soft lighting in the evenings, and a coffee machine that behaves like it has a schedule of its own.",
    "trustscore": 834,
    "size": 88,
    "beds": 2,
    "startDate": "2026-08-18",
    "endDate": "2026-09-10"
  },
  {
    "id": 89,
    "name": "Tomás O'Brien",
    "city": "London",
    "latitude": 51.5155,
    "longitude": -0.1105,
    "description": "Just putting this out there: I’m offering my apartment in London. It’s centrally located, has warm interiors, and a coffee machine that sounds like it’s negotiating every brew.",
    "trustscore": 690,
    "size": 102,
    "beds": 3,
    "startDate": "2026-07-01",
    "endDate": "2026-07-27"
  },
  {
    "id": 90,
    "name": "Elisabeth Gruber",
    "city": "Vienna",
    "latitude": 48.2140,
    "longitude": 16.3700,
    "description": "Starting simple: I’m offering my apartment in Vienna. It’s in a peaceful neighborhood, gets steady daylight, and a coffee machine that is reliably dramatic in the mornings.",
    "trustscore": 220,
    "size": 37,
    "beds": 1,
    "startDate": "2026-06-06",
    "endDate": "2026-06-23"
  },
  {
    "id": 91,
    "name": "Noémie Laurent",
    "city": "Paris",
    "latitude": 48.8580,
    "longitude": 2.3480,
    "description": "Right away: I’m offering my apartment in Paris. It’s in a lively area with good cafés, has pleasant natural light, and a coffee machine that insists on being part of every morning.",
    "trustscore": 905,
    "size": 95,
    "beds": 3,
    "startDate": "2026-09-10",
    "endDate": "2026-10-01"
  },
  {
    "id": 92,
    "name": "Kofi Mensah",
    "city": "London",
    "latitude": 51.4970,
    "longitude": -0.1420,
    "description": "Hello there: I’m offering my apartment in London. It’s in a well-connected area, has a cozy layout, and a coffee machine that sounds like it has strong opinions about timing.",
    "trustscore": 512,
    "size": 83,
    "beds": 2,
    "startDate": "2026-08-09",
    "endDate": "2026-09-06"
  },
  {
    "id": 93,
    "name": "Selin Kaya",
    "city": "Vienna",
    "latitude": 48.2110,
    "longitude": 16.3520,
    "description": "To begin with: I’m offering my apartment in Vienna. It’s in a calm residential zone, has soft morning light, and a coffee machine that behaves like a very committed assistant.",
    "trustscore": 640,
    "size": 79,
    "beds": 2,
    "startDate": "2026-07-28",
    "endDate": "2026-08-15"
  },
  {
    "id": 94,
    "name": "Adrien Roche",
    "city": "Paris",
    "latitude": 48.8500,
    "longitude": 2.3400,
    "description": "Well hello: I’m offering my apartment in Paris. It’s in a pleasant neighborhood, has a bright kitchen corner, and a coffee machine that behaves like it’s slightly proud of itself.",
    "trustscore": 433,
    "size": 55,
    "beds": 2,
    "startDate": "2026-06-25",
    "endDate": "2026-07-20"
  },
  {
    "id": 95,
    "name": "Emily Nguyen",
    "city": "London",
    "latitude": 51.5200,
    "longitude": -0.1250,
    "description": "Kicking off here: I’m offering my apartment in London. It’s in a lively neighborhood, has comfortable natural light, and a coffee machine that sounds slightly too enthusiastic.",
    "trustscore": 781,
    "size": 70,
    "beds": 2,
    "startDate": "2026-09-15",
    "endDate": "2026-10-05"
  },
  {
    "id": 96,
    "name": "David Kim",
    "city": "Vienna",
    "latitude": 48.2060,
    "longitude": 16.4010,
    "description": "Just saying: I’m offering my apartment in Vienna. It’s in a quiet area, has a balanced layout, and a coffee machine that occasionally sounds like it’s thinking deeply.",
    "trustscore": 359,
    "size": 101,
    "beds": 3,
    "startDate": "2026-08-22",
    "endDate": "2026-09-15"
  },
  {
    "id": 97,
    "name": "Fatima Zahra",
    "city": "Paris",
    "latitude": 48.8630,
    "longitude": 2.3560,
    "description": "Here goes: I’m offering my apartment in Paris. It’s in a vibrant district, has warm evening light, and a coffee machine that treats mornings like a ritual.",
    "trustscore": 668,
    "size": 62,
    "beds": 2,
    "startDate": "2026-07-11",
    "endDate": "2026-08-02"
  },
  {
    "id": 98,
    "name": "George Ivanov",
    "city": "London",
    "latitude": 51.5110,
    "longitude": -0.1310,
    "description": "Straight in: I’m offering my apartment in London. It’s in a convenient area, has decent sunlight, and a coffee machine that sounds like it’s preparing for something important.",
    "trustscore": 299,
    "size": 46,
    "beds": 1,
    "startDate": "2026-06-14",
    "endDate": "2026-06-30"
  },
  {
    "id": 99,
    "name": "Anna Rossi",
    "city": "Vienna",
    "latitude": 48.2000,
    "longitude": 16.3600,
    "description": "Quick update: I’m offering my apartment in Vienna. It’s in a calm neighborhood, has soft natural lighting, and a coffee machine that behaves like a loyal but slightly noisy companion.",
    "trustscore": 844,
    "size": 89,
    "beds": 2,
    "startDate": "2026-10-05",
    "endDate": "2026-10-26"
  },
  {
    "id": 100,
    "name": "Lucas Pereira",
    "city": "Paris",
    "latitude": 48.8590,
    "longitude": 2.3700,
    "description": "Last one: I’m offering my apartment in Paris. It’s in a lively yet comfortable neighborhood, has good natural light, and a coffee machine that insists on being part of the experience.",
    "trustscore": 570,
    "size": 118,
    "beds": 3,
    "startDate": "2026-09-20",
    "endDate": "2026-10-17"
  }



	
	
	
  ]
}